[
{
   "Name": "North Battleford Comprehensive High School",
   "PhoneNumber": "3064456101",
   "Communities": [
      "North Battleford",
      "The Battlefords"
   ],
   "WebsiteURL": "https://nbchs.lskysd.ca/",
   "EmailAddress": "nbchs@lskysd.ca",
   "MailingAddress": {
      "Line1": "1791 110th Street",
      "Line2": "",
      "City": "North Battleford",
      "Province": "SK",
      "PostalCode": "S9A 2Y2",
      "Country": "Canada"
   },
   "PhysicalAddress": {
      "Line1": "1791 110th Street",
      "Line2": "",
      "City": "North Battleford",
      "Province": "SK",
      "PostalCode": "S9A 2Y2",
      "Country": "Canada"
   },
   "Latitude": "52.7817261",
   "Longitude": "-108.2844687",
   "Facebook": "https://www.facebook.com/pages/North%20Battleford%20Comprehensive%20High%20School/112391852109433/",
   "Twitter": "",
   "DAN": "5850904",
   "HasGradePK": "false",
   "HasGradeK": "false",
   "HasGrade1": "false",
   "HasGrade2": "false",
   "HasGrade3": "false",
   "HasGrade4": "false",
   "HasGrade5": "false",
   "HasGrade6": "false",
   "HasGrade7": "true",
   "HasGrade8": "true",
   "HasGrade9": "true",
   "HasGrade10": "true",
   "HasGrade11": "true",
   "HasGrade12": "true"
},
{
   "Name": "Luseland School",
   "PhoneNumber": "3063724222",
   "Communities": [
      "Luseland"
   ],
   "WebsiteURL": "https://luseland.lskysd.ca/",
   "EmailAddress": "luseland@lskysd.ca",
   "MailingAddress": {
      "Line1": "Box 399",
      "Line2": "",
      "City": "Luseland",
      "Province": "SK",
      "PostalCode": "S0L 2A0",
      "Country": "Canada"
   },
   "PhysicalAddress": {
      "Line1": "701 Prospect Avenue",
      "Line2": "",
      "City": "Luseland",
      "Province": "SK",
      "PostalCode": "S0L 2A0",
      "Country": "Canada"
   },

   "Latitude": "52.0820676",
   "Longitude": "-109.3855752",
   "Facebook": "https://www.facebook.com/SchoolLuseland",
   "Twitter": "",
   "DAN": "4410323",
   "HasGradePK": "false",
   "HasGradeK": "true",
   "HasGrade1": "true",
   "HasGrade2": "true",
   "HasGrade3": "true",
   "HasGrade4": "true",
   "HasGrade5": "true",
   "HasGrade6": "true",
   "HasGrade7": "true",
   "HasGrade8": "true",
   "HasGrade9": "true",
   "HasGrade10": "true",
   "HasGrade11": "true",
   "HasGrade12": "true"
},
{
   "Name": "Macklin School",
   "PhoneNumber": "3067532375",
   "Communities": [
      "Macklin"
   ],
   "WebsiteURL": "https://macklin.lskysd.ca/",
   "EmailAddress": "macklin@lskysd.ca",
   "MailingAddress": {
      "Line1": "Box 518",
      "Line2": "",
      "City": "Macklin",
      "Province": "SK",
      "PostalCode": "S0L 2C0",
      "Country": "Canada"
   },
   "PhysicalAddress": {
      "Line1": "5001 Herald Street",
      "Line2": "",
      "City": "Macklin",
      "Province": "SK",
      "PostalCode": "S0L 2C0",
      "Country": "Canada"
   },

   "Latitude": "52.3330583",
   "Longitude": "-109.9412089",
   "Facebook": "https://www.facebook.com/Macklin-School-196774997018530",
   "Twitter": "",
   "DAN": "4410413",
   "HasGradePK": "true",
   "HasGradeK": "true",
   "HasGrade1": "true",
   "HasGrade2": "true",
   "HasGrade3": "true",
   "HasGrade4": "true",
   "HasGrade5": "true",
   "HasGrade6": "true",
   "HasGrade7": "true",
   "HasGrade8": "true",
   "HasGrade9": "true",
   "HasGrade10": "true",
   "HasGrade11": "true",
   "HasGrade12": "true"
},
{
   "Name": "McKitrick Community School",
   "PhoneNumber": "3064453851",
   "Communities": [
      "North Battleford",
      "The Battlefords"
   ],
   "WebsiteURL": "https://mckitrick.lskysd.ca/",
   "EmailAddress": "mckitrick@lskysd.ca",
   "MailingAddress": {
      "Line1": "1500 101st Street",
      "Line2": "",
      "City": "North Battleford",
      "Province": "SK",
      "PostalCode": "S9A 1A4",
      "Country": "Canada"
   },
   "PhysicalAddress": {
      "Line1": "1500 101st Street",
      "Line2": "",
      "City": "North Battleford",
      "Province": "SK",
      "PostalCode": "S9A 1A4",
      "Country": "Canada"
   },

   "Latitude": "52.780225",
   "Longitude": "108.2970672",
   "Facebook": "https://www.facebook.com/McKitrick-Community-School-158936927482628",
   "Twitter": "",
   "DAN": "5850601",
   "HasGradePK": "true",
   "HasGradeK": "true",
   "HasGrade1": "true",
   "HasGrade2": "true",
   "HasGrade3": "true",
   "HasGrade4": "true",
   "HasGrade5": "true",
   "HasGrade6": "true",
   "HasGrade7": "false",
   "HasGrade8": "false",
   "HasGrade9": "false",
   "HasGrade10": "false",
   "HasGrade11": "false",
   "HasGrade12": "false"
},
{
   "Name": "Spiritwood High School",
   "PhoneNumber": "3068832282",
   "Communities": [
      "Spiritwood"
   ],
   "WebsiteURL": "https://shs.lskysd.ca/",
   "EmailAddress": "shs@lskysd.ca",
   "MailingAddress": {
      "Line1": "Box 280",
      "Line2": "",
      "City": "",
      "Province": "SK",
      "PostalCode": "S0J 2M0",
      "Country": "Canada"
   },
   "PhysicalAddress": {
      "Line1": "216 4th Street West",
      "Line2": "",
      "City": "Spiritwood",
      "Province": "SK",
      "PostalCode": "S0J 2M0",
      "Country": "Canada"
   },

   "Latitude": "53.3655182",
   "Longitude": "-107.5258621",
   "Facebook": "https://www.facebook.com/Spiritwood-High-School-225340694468912",
   "Twitter": "",
   "DAN": "6410713",
   "HasGradePK": "false",
   "HasGradeK": "false",
   "HasGrade1": "false",
   "HasGrade2": "false",
   "HasGrade3": "false",
   "HasGrade4": "false",
   "HasGrade5": "false",
   "HasGrade6": "false",
   "HasGrade7": "true",
   "HasGrade8": "true",
   "HasGrade9": "true",
   "HasGrade10": "true",
   "HasGrade11": "true",
   "HasGrade12": "true"
},
{
   "Name": "Lawrence School",
   "PhoneNumber": "3064454944",
   "Communities": [
      "North Battleford",
      "The Battlefords"
   ],
   "WebsiteURL": "https://lawrence.lskysd.ca/",
   "EmailAddress": "lawrence@lskysd.ca",
   "MailingAddress": {
      "Line1": "1942 102nd Street",
      "Line2": "",
      "City": "North Battleford",
      "Province": "SK",
      "PostalCode": "S9A 1H7",
      "Country": "Canada"
   },
   "PhysicalAddress": {
      "Line1": "1942 102nd Street",
      "Line2": "",
      "City": "North Battleford",
      "Province": "SK",
      "PostalCode": "S9A 1H7",
      "Country": "Canada"
   },
   "Latitude": "52.7863178",
   "Longitude": "-108.2954939",
   "Facebook": "https://www.facebook.com/LawrenceWildcats",
   "Twitter": "",
   "DAN": "5850501",
   "HasGradePK": "true",
   "HasGradeK": "true",
   "HasGrade1": "true",
   "HasGrade2": "true",
   "HasGrade3": "true",
   "HasGrade4": "true",
   "HasGrade5": "true",
   "HasGrade6": "true",
   "HasGrade7": "false",
   "HasGrade8": "false",
   "HasGrade9": "false",
   "HasGrade10": "false",
   "HasGrade11": "false",
   "HasGrade12": "false"
},
{
   "Name": "Battleford Central School",
   "PhoneNumber": "3069372112",
   "Communities": [
      "Battleford",
      "The Battlefords"
   ],
   "WebsiteURL": "https://bcs.lskysd.ca/",
   "EmailAddress": "bcs@lskysd.ca",
   "MailingAddress": {
      "Line1": "Box 400",
      "Line2": "",
      "City": "Battleford",
      "Province": "SK",
      "PostalCode": "S0M 0E0",
      "Country": "Canada"
   },
   "PhysicalAddress": {
      "Line1": "252 23rd Street West",
      "Line2": "",
      "City": "Battleford",
      "Province": "SK",
      "PostalCode": "S0M 0E0",
      "Country": "Canada"
   },

   "Latitude": "52.7381034",
   "Longitude": "-108.3101458",
   "Facebook": "https://www.facebook.com/battleford.central",
   "Twitter": "",
   "DAN": "5810211",
   "HasGradePK": "true",
   "HasGradeK": "true",
   "HasGrade1": "true",
   "HasGrade2": "true",
   "HasGrade3": "true",
   "HasGrade4": "true",
   "HasGrade5": "true",
   "HasGrade6": "true",
   "HasGrade7": "false",
   "HasGrade8": "false",
   "HasGrade9": "false",
   "HasGrade10": "false",
   "HasGrade11": "false",
   "HasGrade12": "false"
},
{
   "Name": "Bready School",
   "PhoneNumber": "3064454954",
   "Communities": [
      "North Battleford",
      "The Battlefords"
   ],
   "WebsiteURL": "https://bready.lskysd.ca/",
   "EmailAddress": "bready@lskysd.ca",
   "MailingAddress": {
      "Line1": "9001 17th Avenue West",
      "Line2": "",
      "City": "North Battleford",
      "Province": "SK",
      "PostalCode": "S9A 2V1",
      "Country": "Canada"
   },
   "PhysicalAddress": {
      "Line1": "9001 17th Avenue West",
      "Line2": "",
      "City": "North Battleford",
      "Province": "SK",
      "PostalCode": "S9A 2V1",
      "Country": "Canada"
   },
   "Latitude": "52.7842126",
   "Longitude": "-108.3152238",
   "Facebook": "https://www.facebook.com/Bready-Elementary-School-672702862768845",
   "Twitter": "",
   "DAN": "5850201",
   "HasGradePK": "false",
   "HasGradeK": "true",
   "HasGrade1": "true",
   "HasGrade2": "true",
   "HasGrade3": "true",
   "HasGrade4": "true",
   "HasGrade5": "true",
   "HasGrade6": "true",
   "HasGrade7": "false",
   "HasGrade8": "false",
   "HasGrade9": "false",
   "HasGrade10": "false",
   "HasGrade11": "false",
   "HasGrade12": "false"
},
{
   "Name": "Cando Community School",
   "PhoneNumber": "3069373934",
   "Communities": [
      "Cando"
   ],
   "WebsiteURL": "https://cando.lskysd.ca/",
   "EmailAddress": "cando@lskysd.ca",
   "MailingAddress": {
      "Line1": "Box 250",
      "Line2": "",
      "City": "Cando",
      "Province": "SK",
      "PostalCode": "S0K 0V0",
      "Country": "Canada"
   },
   "PhysicalAddress": {
      "Line1": "201 7th Street",
      "Line2": "",
      "City": "Cando",
      "Province": "SK",
      "PostalCode": "S0K 0V0",
      "Country": "Canada"
   },
   "Latitude": "52.3713586",
   "Longitude": "-108.2163658",
   "Facebook": "https://www.facebook.com/candocougars",
   "Twitter": "",
   "DAN": "5010213",
   "HasGradePK": "false",
   "HasGradeK": "true",
   "HasGrade1": "true",
   "HasGrade2": "true",
   "HasGrade3": "true",
   "HasGrade4": "true",
   "HasGrade5": "true",
   "HasGrade6": "true",
   "HasGrade7": "true",
   "HasGrade8": "true",
   "HasGrade9": "true",
   "HasGrade10": "true",
   "HasGrade11": "true",
   "HasGrade12": "true"
},
{
   "Name": "Connaught School",
   "PhoneNumber": "3064453661",
   "Communities": [
      "North Battleford",
      "The Battlefords"
   ],
   "WebsiteURL": "https://connaught.lskysd.ca/",
   "EmailAddress": "connaught@lskysd.ca",
   "MailingAddress": {
      "Line1": "902 107th Street",
      "Line2": "",
      "City": "North Battleford",
      "Province": "SK",
      "PostalCode": "S9A 1Y7",
      "Country": "Canada"
   },
   "PhysicalAddress": {
      "Line1": "902 107th Street",
      "Line2": "",
      "City": "North Battleford",
      "Province": "SK",
      "PostalCode": "S9A 1Y7",
      "Country": "Canada"
   },
   "Latitude": "52.7705653",
   "Longitude": "-108.2884576",
   "Facebook": "https://www.facebook.com/Connaught-Elementary-School-490016944392340",
   "Twitter": "",
   "DAN": "5850401",
   "HasGradePK": "true",
   "HasGradeK": "true",
   "HasGrade1": "true",
   "HasGrade2": "true",
   "HasGrade3": "true",
   "HasGrade4": "true",
   "HasGrade5": "true",
   "HasGrade6": "true",
   "HasGrade7": "false",
   "HasGrade8": "false",
   "HasGrade9": "false",
   "HasGrade10": "false",
   "HasGrade11": "false",
   "HasGrade12": "false"
},
{
   "Name": "Cut Knife Community School",
   "PhoneNumber": "3063982333",
   "Communities": [
      "Cut Knife"
   ],
   "WebsiteURL": "https://ckcs.lskysd.ca/",
   "EmailAddress": "ckcs@lskysd.ca",
   "MailingAddress": {
      "Line1": "Box 430",
      "Line2": "",
      "City": "Cut Knife",
      "Province": "SK",
      "PostalCode": "S0M 0N0",
      "Country": "Canada"
   },
   "PhysicalAddress": {
      "Line1": "200 Arthur Street",
      "Line2": "",
      "City": "Cut Knife",
      "Province": "SK",
      "PostalCode": "S0M 0N0",
      "Country": "Canada"
   },
   "Latitude": "52.7450548",
   "Longitude": "-109.0139418",
   "Facebook": "https://www.facebook.com/ckcskodiaks",
   "Twitter": "",
   "DAN": "5910123",
   "HasGradePK": "true",
   "HasGradeK": "true",
   "HasGrade1": "true",
   "HasGrade2": "true",
   "HasGrade3": "true",
   "HasGrade4": "true",
   "HasGrade5": "true",
   "HasGrade6": "true",
   "HasGrade7": "true",
   "HasGrade8": "true",
   "HasGrade9": "true",
   "HasGrade10": "true",
   "HasGrade11": "true",
   "HasGrade12": "true"
},
{
   "Name": "Hafford Central School",
   "PhoneNumber": "3065492212",
   "Communities": [
      "Hafford"
   ],
   "WebsiteURL": "https://hafford.lskysd.ca/",
   "EmailAddress": "hafford@lskysd.ca",
   "MailingAddress": {
      "Line1": "Box 97",
      "Line2": "",
      "City": "Hafford",
      "Province": "SK",
      "PostalCode": "S0J 1A0",
      "Country": "Canada"
   },
   "PhysicalAddress": {
      "Line1": "212 2nd Avenue East",
      "Line2": "",
      "City": "Hafford",
      "Province": "SK",
      "PostalCode": "S0J 1A0",
      "Country": "Canada"
   },
   "Latitude": "52.7270061",
   "Longitude": "-107.3483536",
   "Facebook": "https://www.facebook.com/Hafford-Central-School-863846580368806",
   "Twitter": "",
   "DAN": "5710213",
   "HasGradePK": "false",
   "HasGradeK": "true",
   "HasGrade1": "true",
   "HasGrade2": "true",
   "HasGrade3": "true",
   "HasGrade4": "true",
   "HasGrade5": "true",
   "HasGrade6": "true",
   "HasGrade7": "true",
   "HasGrade8": "true",
   "HasGrade9": "true",
   "HasGrade10": "true",
   "HasGrade11": "true",
   "HasGrade12": "true"
},
{
   "Name": "Hartley Clark School",
   "PhoneNumber": "3068832183",
   "Communities": [
      "Spiritwood"
   ],
   "WebsiteURL": "https://hces.lskysd.ca/",
   "EmailAddress": "hclark@lskysd.ca",
   "MailingAddress": {
      "Line1": "Box 729",
      "Line2": "",
      "City": "Spiritwood",
      "Province": "SK",
      "PostalCode": "S0J 2M0",
      "Country": "Canada"
   },
   "PhysicalAddress": {
      "Line1": "221 2nd Street West",
      "Line2": "",
      "City": "Spiritwood",
      "Province": "SK",
      "PostalCode": "S0J 2M0",
      "Country": "Canada"
   },
   "Latitude": "53.3647371",
   "Longitude": "-107.5221794",
   "Facebook": "https://www.facebook.com/hartleyclarkelementary",
   "Twitter": "",
   "DAN": "6410721",
   "HasGradePK": "false",
   "HasGradeK": "true",
   "HasGrade1": "true",
   "HasGrade2": "true",
   "HasGrade3": "true",
   "HasGrade4": "true",
   "HasGrade5": "true",
   "HasGrade6": "true",
   "HasGrade7": "false",
   "HasGrade8": "false",
   "HasGrade9": "false",
   "HasGrade10": "false",
   "HasGrade11": "false",
   "HasGrade12": "false"
},
{
   "Name": "Heritage Christian School",
   "PhoneNumber": "3064463188",
   "Communities": [
      "Battleford",
      "The Battlefords"
   ],
   "WebsiteURL": "https://heritage.lskysd.ca/",
   "EmailAddress": "heritage@lskysd.ca",
   "MailingAddress": {
      "Line1": "Box 490",
      "Line2": "",
      "City": "Battleford",
      "Province": "SK",
      "PostalCode": "S0M 0E0",
      "Country": "Canada"
   },
   "PhysicalAddress": {
      "Line1": "11 20th Street",
      "Line2": "",
      "City": "Battleford",
      "Province": "SK",
      "PostalCode": "S0M 0E0",
      "Country": "Canada"
   },
   "Latitude": "52.7341241",
   "Longitude": "-108.3012363",
   "Facebook": "https://www.facebook.com/HCSBattleford",
   "Twitter": "",
   "DAN": "5894003",
   "HasGradePK": "false",
   "HasGradeK": "true",
   "HasGrade1": "true",
   "HasGrade2": "true",
   "HasGrade3": "true",
   "HasGrade4": "true",
   "HasGrade5": "true",
   "HasGrade6": "true",
   "HasGrade7": "true",
   "HasGrade8": "true",
   "HasGrade9": "true",
   "HasGrade10": "false",
   "HasGrade11": "false",
   "HasGrade12": "false"
},
{
   "Name": "Hillsvale Colony School",
   "PhoneNumber": "3063982944",
   "Communities": [
      "Cut Knife"
   ],
   "WebsiteURL": "http://www.lskysd.ca/school/hillsvale",
   "EmailAddress": "hillsvale@lskysd.ca",
   "MailingAddress": {
      "Line1": "Box 368",
      "Line2": "",
      "City": "Cut Knife",
      "Province": "SK",
      "PostalCode": "S0M 0N0",
      "Country": "Canada"
   },
   "PhysicalAddress": {
      "Line1": "Box 368",
      "Line2": "",
      "City": "Cut Knife",
      "Province": "SK",
      "PostalCode": "S0M 0N0",
      "Country": "Canada"
   },
   "Latitude": "52.747843",
   "Longitude": "109.0206088",
   "Facebook": "",
   "Twitter": "",
   "DAN": "5910313",
   "HasGradePK": "false",
   "HasGradeK": "true",
   "HasGrade1": "true",
   "HasGrade2": "true",
   "HasGrade3": "true",
   "HasGrade4": "true",
   "HasGrade5": "true",
   "HasGrade6": "true",
   "HasGrade7": "true",
   "HasGrade8": "true",
   "HasGrade9": "true",
   "HasGrade10": "false",
   "HasGrade11": "false",
   "HasGrade12": "false"
},
{
   "Name": "Kerrobert Composite School",
   "PhoneNumber": "3068342444",
   "Communities": [
      "Kerrobert"
   ],
   "WebsiteURL": "https://kerrobert.lskysd.ca/",
   "EmailAddress": "kcs@lskysd.ca",
   "MailingAddress": {
      "Line1": "Box 258",
      "Line2": "",
      "City": "Kerrobert",
      "Province": "SK",
      "PostalCode": "S0L 1R0",
      "Country": "Canada"
   },
   "PhysicalAddress": {
      "Line1": "115 Alberta Avenue",
      "Line2": "",
      "City": "Kerrobert",
      "Province": "SK",
      "PostalCode": "S0L 1R0",
      "Country": "Canada"
   },
   "Latitude": "51.9143568",
   "Longitude": "-109.1363867",
   "Facebook": "https://www.facebook.com/Kerrobert-Composite-School-378842212690479",
   "Twitter": "",
   "DAN": "4410223",
   "HasGradePK": "false",
   "HasGradeK": "true",
   "HasGrade1": "true",
   "HasGrade2": "true",
   "HasGrade3": "true",
   "HasGrade4": "true",
   "HasGrade5": "true",
   "HasGrade6": "true",
   "HasGrade7": "true",
   "HasGrade8": "true",
   "HasGrade9": "true",
   "HasGrade10": "true",
   "HasGrade11": "true",
   "HasGrade12": "true"
},
{
   "Name": "Lakeview Colony School",
   "PhoneNumber": "3062472050",
   "Communities": [
      "Unity"
   ],
   "WebsiteURL": "http://www.lskysd.ca/school/lakeview",
   "EmailAddress": "lakeview@lskysd.ca",
   "MailingAddress": {
      "Line1": "Box 366",
      "Line2": "",
      "City": "Unity",
      "Province": "SK",
      "PostalCode": "S0K 4L0",
      "Country": "Canada"
   },
   "PhysicalAddress": {
      "Line1": "Box 366",
      "Line2": "",
      "City": "Unity",
      "Province": "SK",
      "PostalCode": "S0K 4L0",
      "Country": "Canada"
   },
   "Latitude": "52.4437324",
   "Longitude": "-109.1583194",
   "Facebook": "",
   "Twitter": "",
   "DAN": "5911011",
   "HasGradePK": "false",
   "HasGradeK": "true",
   "HasGrade1": "true",
   "HasGrade2": "true",
   "HasGrade3": "true",
   "HasGrade4": "true",
   "HasGrade5": "true",
   "HasGrade6": "true",
   "HasGrade7": "true",
   "HasGrade8": "true",
   "HasGrade9": "true",
   "HasGrade10": "false",
   "HasGrade11": "false",
   "HasGrade12": "false"
},
{
   "Name": "Leoville Central School",
   "PhoneNumber": "3069842241",
   "Communities": [
      "Leoville"
   ],
   "WebsiteURL": "https://leoville.lskysd.ca/",
   "EmailAddress": "leoville@lskysd.ca",
   "MailingAddress": {
      "Line1": "Box 39",
      "Line2": "",
      "City": "Leoville",
      "Province": "SK",
      "PostalCode": "S0J 1N0",
      "Country": "Canada"
   },
   "PhysicalAddress": {
      "Line1": "109 1st Street West",
      "Line2": "",
      "City": "Leoville",
      "Province": "SK",
      "PostalCode": "S0J 1N0",
      "Country": "Canada"
   },
   "Latitude": "53.6326186",
   "Longitude": "-107.5562596",
   "Facebook": "https://www.facebook.com/Leoville-Central-School-547988765386943/",
   "Twitter": "",
   "DAN": "6410313",
   "HasGradePK": "true",
   "HasGradeK": "true",
   "HasGrade1": "true",
   "HasGrade2": "true",
   "HasGrade3": "true",
   "HasGrade4": "true",
   "HasGrade5": "true",
   "HasGrade6": "true",
   "HasGrade7": "true",
   "HasGrade8": "true",
   "HasGrade9": "true",
   "HasGrade10": "true",
   "HasGrade11": "true",
   "HasGrade12": "true"
},
{
   "Name": "Maymont Central School",
   "PhoneNumber": "3063892045",
   "Communities": [
      "Maymont"
   ],
   "WebsiteURL": "https://maymont.lskysd.ca/",
   "EmailAddress": "maymont@lskysd.ca",
   "MailingAddress": {
      "Line1": "Box 129",
      "Line2": "",
      "City": "Maymont",
      "Province": "SK",
      "PostalCode": "S0M 1T0",
      "Country": "Canada"
   },
   "PhysicalAddress": {
      "Line1": "200 1st Street East",
      "Line2": "",
      "City": "Maymont",
      "Province": "SK",
      "PostalCode": "S0M 1T0",
      "Country": "Canada"
   },
   "Latitude": "52.564022",
   "Longitude": "107.7047816",
   "Facebook": "https://www.facebook.com/maymontcentralschool",
   "Twitter": "",
   "DAN": "5810713",
   "HasGradePK": "true",
   "HasGradeK": "true",
   "HasGrade1": "true",
   "HasGrade2": "true",
   "HasGrade3": "true",
   "HasGrade4": "true",
   "HasGrade5": "true",
   "HasGrade6": "true",
   "HasGrade7": "true",
   "HasGrade8": "true",
   "HasGrade9": "true",
   "HasGrade10": "true",
   "HasGrade11": "true",
   "HasGrade12": "true"
},
{
   "Name": "McLurg High School",
   "PhoneNumber": "3068432288",
   "Communities": [
      "Wilkie"
   ],
   "WebsiteURL": "https://mclurg.lskysd.ca/",
   "EmailAddress": "mclurg@lskysd.ca",
   "MailingAddress": {
      "Line1": "Box 489",
      "Line2": "",
      "City": "Wilkie",
      "Province": "SK",
      "PostalCode": "S0K 4W0",
      "Country": "Canada"
   },
   "PhysicalAddress": {
      "Line1": "202 5th Avenue",
      "Line2": "",
      "City": "Wilkie",
      "Province": "SK",
      "PostalCode": "S0K 4WO",
      "Country": "Canada"
   },
   "Latitude": "52.4079351",
   "Longitude": "-108.7067638",
   "Facebook": "https://www.facebook.com/pages/Mclurg%20High%20School/106421076061348/",
   "Twitter": "",
   "DAN": "5910923",
   "HasGradePK": "false",
   "HasGradeK": "false",
   "HasGrade1": "false",
   "HasGrade2": "false",
   "HasGrade3": "false",
   "HasGrade4": "false",
   "HasGrade5": "false",
   "HasGrade6": "false",
   "HasGrade7": "true",
   "HasGrade8": "true",
   "HasGrade9": "true",
   "HasGrade10": "true",
   "HasGrade11": "true",
   "HasGrade12": "true"
},
{
   "Name": "Meadow Lake Christian Academy",
   "PhoneNumber": "3062365262",
   "Communities": [
      "Meadow Lake"
   ],
   "WebsiteURL": "https://mlca.lskysd.ca/",
   "EmailAddress": "meadowlake@lskysd.ca",
   "MailingAddress": {
      "Line1": "208 9th Avenue East",
      "Line2": "",
      "City": "Meadow Lake",
      "Province": "SK",
      "PostalCode": "S9X 1G3",
      "Country": "Canada"
   },
   "PhysicalAddress": {
      "Line1": "208 9th Avenue East",
      "Line2": "",
      "City": "Meadow Lake",
      "Province": "SK",
      "PostalCode": "S9X 1G3",
      "Country": "Canada"
   },
   "Latitude": "54.121493",
   "Longitude": "-108.430621",
   "Facebook": "",
   "Twitter": "",
   "DAN": "6694003",
   "HasGradePK": "false",
   "HasGradeK": "true",
   "HasGrade1": "true",
   "HasGrade2": "true",
   "HasGrade3": "true",
   "HasGrade4": "true",
   "HasGrade5": "true",
   "HasGrade6": "true",
   "HasGrade7": "true",
   "HasGrade8": "true",
   "HasGrade9": "true",
   "HasGrade10": "true",
   "HasGrade11": "true",
   "HasGrade12": "true"
},
{
   "Name": "Medstead Central School",
   "PhoneNumber": "3063424600",
   "Communities": [
      "Medstead"
   ],
   "WebsiteURL": "https://medstead.lskysd.ca/",
   "EmailAddress": "medstead@lskysd.ca",
   "MailingAddress": {
      "Line1": "Box 150",
      "Line2": "",
      "City": "Medstead",
      "Province": "SK",
      "PostalCode": "S0M 1W0",
      "Country": "Canada"
   },
   "PhysicalAddress": {
      "Line1": "219 2nd Ave",
      "Line2": "",
      "City": "Medstead",
      "Province": "SK",
      "PostalCode": "S0M 1W0",
      "Country": "Canada"
   },
   "Latitude": "53.2981303",
   "Longitude": "-108.0834595",
   "Facebook": "https://www.facebook.com/MedsteadCentralSchool",
   "Twitter": "",
   "DAN": "6410513",
   "HasGradePK": "false",
   "HasGradeK": "true",
   "HasGrade1": "true",
   "HasGrade2": "true",
   "HasGrade3": "true",
   "HasGrade4": "true",
   "HasGrade5": "true",
   "HasGrade6": "true",
   "HasGrade7": "true",
   "HasGrade8": "true",
   "HasGrade9": "true",
   "HasGrade10": "true",
   "HasGrade11": "true",
   "HasGrade12": "true"
},
{
   "Name": "Norman Carter School",
   "PhoneNumber": "3068432675",
   "Communities": [
      "Wilkie"
   ],
   "WebsiteURL": "https://nces.lskysd.ca/",
   "EmailAddress": "nc@lskysd.ca",
   "MailingAddress": {
      "Line1": "Box 879",
      "Line2": "",
      "City": "Wilkie",
      "Province": "SK",
      "PostalCode": "S0K 4W0",
      "Country": "Canada"
   },
   "PhysicalAddress": {
      "Line1": "202 7th Avenue East",
      "Line2": "",
      "City": "Wilkie",
      "Province": "SK",
      "PostalCode": "S0K 4WO",
      "Country": "Canada"
   },
   "Latitude": "52.4055",
   "Longitude": "-108.708",
   "Facebook": "https://www.facebook.com/pages/Norman%20Carter%20Elementary%20School/438382849521435/",
   "Twitter": "",
   "DAN": "5910911",
   "HasGradePK": "false",
   "HasGradeK": "true",
   "HasGrade1": "true",
   "HasGrade2": "true",
   "HasGrade3": "true",
   "HasGrade4": "true",
   "HasGrade5": "true",
   "HasGrade6": "true",
   "HasGrade7": "false",
   "HasGrade8": "false",
   "HasGrade9": "false",
   "HasGrade10": "false",
   "HasGrade11": "false",
   "HasGrade12": "false"
},
{
   "Name": "Scott Colony School",
   "PhoneNumber": "3062474800",
   "Communities": [
      "Unity"
   ],
   "WebsiteURL": "http://www.lskysd.ca/school/scott",
   "EmailAddress": "scott@lskysd.ca",
   "MailingAddress": {
      "Line1": "Box 1510",
      "Line2": "",
      "City": "Unity",
      "Province": "SK",
      "PostalCode": "S0K 4L0",
      "Country": "Canada"
   },
   "PhysicalAddress": {
      "Line1": "Box 1510",
      "Line2": "",
      "City": "Unity",
      "Province": "SK",
      "PostalCode": "S0K 4L0",
      "Country": "Canada"
   },
   "Latitude": "52.4437324",
   "Longitude": "-109.1583194",
   "Facebook": "",
   "Twitter": "",
   "DAN": "5911113",
   "HasGradePK": "false",
   "HasGradeK": "true",
   "HasGrade1": "true",
   "HasGrade2": "true",
   "HasGrade3": "true",
   "HasGrade4": "true",
   "HasGrade5": "true",
   "HasGrade6": "true",
   "HasGrade7": "true",
   "HasGrade8": "true",
   "HasGrade9": "true",
   "HasGrade10": "false",
   "HasGrade11": "false",
   "HasGrade12": "false"
},
{
   "Name": "St. Vital Catholic School",
   "PhoneNumber": "3069372233",
   "Communities": [
      "Battleford",
      "The Battlefords"
   ],
   "WebsiteURL": "https://stvital.lskysd.ca/",
   "EmailAddress": "stvital@lskysd.ca",
   "MailingAddress": {
      "Line1": "Box 358",
      "Line2": "",
      "City": "Battleford",
      "Province": "SK",
      "PostalCode": "S0M 0E0",
      "Country": "Canada"
   },
   "PhysicalAddress": {
      "Line1": "332 23rd Street West",
      "Line2": "",
      "City": "Battleford",
      "Province": "SK",
      "PostalCode": "S0M 0E0",
      "Country": "Canada"
   },
   "Latitude": "52.737148",
   "Longitude": "108.3129684",
   "Facebook": "https://www.facebook.com/stvitalelementary",
   "Twitter": "",
   "DAN": "5810221",
   "HasGradePK": "true",
   "HasGradeK": "true",
   "HasGrade1": "true",
   "HasGrade2": "true",
   "HasGrade3": "true",
   "HasGrade4": "true",
   "HasGrade5": "true",
   "HasGrade6": "true",
   "HasGrade7": "true",
   "HasGrade8": "false",
   "HasGrade9": "false",
   "HasGrade10": "false",
   "HasGrade11": "false",
   "HasGrade12": "false"
},
{
   "Name": "Unity Composite High School",
   "PhoneNumber": "3062282657",
   "Communities": [
      "Unity"
   ],
   "WebsiteURL": "https://uchs.lskysd.ca/",
   "EmailAddress": "uchs@lskysd.ca",
   "MailingAddress": {
      "Line1": "Box 1000",
      "Line2": "",
      "City": "Unity",
      "Province": "SK",
      "PostalCode": "S0K 4L0",
      "Country": "Canada"
   },
   "PhysicalAddress": {
      "Line1": "300 3rd Avenue East",
      "Line2": "",
      "City": "Unity",
      "Province": "SK",
      "PostalCode": "S0K 4L0",
      "Country": "Canada"
   },
   "Latitude": "52.4406401",
   "Longitude": "-109.1521982",
   "Facebook": "https://www.facebook.com/unitycompositehighschool",
   "Twitter": "",
   "DAN": "5910813",
   "HasGradePK": "false",
   "HasGradeK": "false",
   "HasGrade1": "false",
   "HasGrade2": "false",
   "HasGrade3": "false",
   "HasGrade4": "false",
   "HasGrade5": "false",
   "HasGrade6": "false",
   "HasGrade7": "true",
   "HasGrade8": "true",
   "HasGrade9": "true",
   "HasGrade10": "true",
   "HasGrade11": "true",
   "HasGrade12": "true"
},
{
   "Name": "Unity Public School",
   "PhoneNumber": "3062284177",
   "Communities": [
      "Unity"
   ],
   "WebsiteURL": "https://ups.lskysd.ca/",
   "EmailAddress": "ups@lskysd.ca",
   "MailingAddress": {
      "Line1": "Box 1150",
      "Line2": "",
      "City": "Unity",
      "Province": "SK",
      "PostalCode": "S0K 4L0",
      "Country": "Canada"
   },
   "PhysicalAddress": {
      "Line1": "301 3rd Avenue EastÂ ",
      "Line2": "",
      "City": "Unity",
      "Province": "SK",
      "PostalCode": "S0K 4L0",
      "Country": "Canada"
   },
   "Latitude": "52.4419872",
   "Longitude": "-109.1526242",
   "Facebook": "https://www.facebook.com/Unity-Public-School-163914503641184",
   "Twitter": "",
   "DAN": "5910711",
   "HasGradePK": "true",
   "HasGradeK": "true",
   "HasGrade1": "true",
   "HasGrade2": "true",
   "HasGrade3": "true",
   "HasGrade4": "true",
   "HasGrade5": "true",
   "HasGrade6": "true",
   "HasGrade7": "false",
   "HasGrade8": "false",
   "HasGrade9": "false",
   "HasGrade10": "false",
   "HasGrade11": "false",
   "HasGrade12": "false"
   }
]